{
  "us-east-1": { "name": "Virginia", "latitude": 38.13, "longitude": -78.45 },
  "us-east-2": { "name": "Ohio", "latitude": 39.96, "longitude": -83 },
  "us-west-1": { "name": "California", "latitude": 37.35, "longitude": -121.96 },
  "us-west-2": { "name": "Oregon", "latitude": 46.15, "longitude": -123.88 },
  "eu-west-1": { "name": "Ireland", "latitude": 53, "longitude": -8 },
  "eu-west-2": { "name": "London", "latitude": 51, "longitude": -0.1 },
  "eu-west-3": { "name": "Paris", "latitude": 48.86, "longitude": 2.35 },
  "eu-central-1": { "name": "Frankfurt", "latitude": -23.34, "longitude": -46.38 },
  "sa-east-1": { "name": "Sao Paulo", "latitude": 46.15, "longitude": -123.88 },
  "ap-southeast-1": { "name": "Singapore", "latitude": 1.37, "longitude": 103.8 },
  "ap-southeast-2": { "name": "Sydney", "latitude": -33.86, "longitude": 151.2 },
  "ap-northeast-1": { "name": "Tokyo", "latitude": 35.41, "longitude": 139.42},
  "ap-northeast-2": { "name": "Seoul", "latitude": 37.56, "longitude": 126.98},
  "ap-south-1": { "name": "Mumbai", "latitude": 19.08, "longitude": 72.88},
  "ca-central-1": { "name": "Canada Central", "latitude": 45.5, "longitude": -73.6}
}

